City_ID,City,Lat,Lng,Max Temp,Humidity,Cloudiness,Wind Speed,Country,Date
0,adamstown,-25.066,-130.1015,26.35,74,99,0.16,PN,1708924268
1,punta arenas,-53.15,-70.9167,11.06,87,75,1.54,CL,1708924608
2,uturoa,-16.7333,-151.4333,28.77,78,46,5.19,PF,1708924608
3,lib,8.3122,167.3766,27.69,81,22,6.67,MH,1708924609
4,daru,-9.0763,143.2092,30.16,74,57,1.49,PG,1708924609
5,eruh,37.7517,42.1811,1.46,47,0,2.75,TR,1708924610
6,quellon,-43.1167,-73.6167,10.86,87,3,1.2,CL,1708924611
7,brookings,44.3114,-96.7984,2.32,81,40,5.14,US,1708924611
8,dudinka,69.4058,86.1778,-15.21,93,100,13.7,RU,1708924583
9,waitangi,-43.9535,-176.5597,17.12,67,97,0.89,NZ,1708924472
10,port-aux-francais,-49.35,70.2167,6.09,85,100,9.83,TF,1708924537
11,sanya,18.2431,109.505,28.09,61,20,4.0,CN,1708924613
12,longyearbyen,78.2186,15.6401,-17.09,78,40,2.57,SJ,1708924124
13,lebu,-37.6167,-73.65,12.87,87,5,5.66,CL,1708924614
14,west island,-12.1568,96.8225,28.3,75,36,7.23,CC,1708924614
15,sisimiut,66.9395,-53.6735,-17.38,85,75,3.97,GL,1708924615
16,ribeira grande,38.5167,-28.7,15.99,92,22,7.15,PT,1708924471
17,yellowknife,62.456,-114.3525,-28.58,93,63,4.47,CA,1708924616
18,guerrero negro,27.9769,-114.0611,17.48,71,100,3.21,MX,1708924616
19,susuman,62.7833,148.1667,-26.68,92,74,0.89,RU,1708924617
20,sao joao da barra,-21.6403,-41.0511,23.18,91,83,1.65,BR,1708924617
21,iskateley,67.6803,53.1512,-1.1,94,100,7.6,RU,1708924567
22,nuku'alofa,-21.1333,-175.2,28.19,89,40,5.14,TO,1708924618
23,invercargill,-46.4,168.35,18.34,62,100,1.79,NZ,1708924558
24,hovd,48.0056,91.6419,-13.08,49,46,1.7,MN,1708924619
25,tiksi,71.6872,128.8694,-19.83,91,100,8.48,RU,1708924543
26,papatowai,-46.5619,169.4708,14.73,70,100,3.92,NZ,1708924620
27,hotan,37.0997,79.9269,1.92,47,99,1.33,CN,1708924621
28,saipan,15.1355,145.701,28.39,65,40,5.66,MP,1708924373
29,meadow lakes,61.6247,-149.6011,-10.31,88,0,0.0,US,1708924622
30,tazovsky,67.4667,78.7,-13.48,92,100,10.37,RU,1708924622
31,la ronge,55.1001,-105.2842,-18.48,89,89,4.33,CA,1708924415
32,puerto natales,-51.7236,-72.4875,9.77,94,61,0.89,CL,1708924623
33,baruun-urt,46.6806,113.2792,-11.13,81,100,5.52,MN,1708924624
34,mugia,43.1041,-9.2179,10.51,73,73,13.52,ES,1708924624
35,albany,42.6001,-73.9662,2.07,54,94,1.79,US,1708924539
36,ushuaia,-54.8,-68.3,9.89,99,100,0.11,AR,1708924526
37,queenstown,-31.8976,26.8753,8.87,70,56,1.53,ZA,1708924626
38,enewetak,11.3474,162.3373,27.02,76,14,4.04,MH,1708924626
39,illizi,26.4833,8.4667,9.4,36,0,1.71,DZ,1708924627
40,mana,5.6592,-53.7767,25.43,79,62,4.51,GF,1708924627
41,nakskov,54.8373,11.1284,4.58,86,100,0.47,DK,1708924628
42,polyarnyy,69.1989,33.4478,1.88,85,100,9.51,RU,1708924628
43,zvenigovo,55.9742,48.0181,-7.47,83,100,3.59,RU,1708924629
44,nema,57.5067,50.5011,-8.02,85,100,3.95,RU,1708924629
45,souillac,-20.5167,57.5167,26.3,94,75,6.69,MU,1708924630
46,port douglas,-16.4833,145.4667,28.82,82,60,3.46,AU,1708924630
47,bethel,41.3712,-73.414,1.42,82,0,0.0,US,1708924621
48,joshimath,30.5667,79.5667,12.34,20,98,2.34,IN,1708924631
49,atafu village,-8.5421,-172.5159,29.52,69,76,4.97,TK,1708924631
50,nongpoh,25.9,91.8833,22.21,27,2,2.52,IN,1708924632
51,nova sintra,14.8667,-24.7167,19.86,73,2,5.68,CV,1708924633
52,bilibino,68.0546,166.4372,-29.08,99,100,1.05,RU,1708924560
53,grytviken,-54.2811,-36.5092,2.19,90,55,5.14,GS,1708924556
54,mbabane,-26.3167,31.1333,15.99,97,100,1.56,SZ,1708924635
55,middelburg,-25.7751,29.4648,19.2,78,4,4.87,ZA,1708924636
56,blackmans bay,-43.0167,147.3167,19.74,45,27,4.42,AU,1708924637
57,utrik,11.2278,169.8474,26.52,79,49,7.58,MH,1708924463
58,dunedin,-45.8742,170.5036,15.45,81,100,0.89,NZ,1708924638
59,el triunfo,-1.9333,-79.9667,27.02,96,100,0.58,EC,1708924638
60,petropavlovsk-kamchatsky,53.0452,158.6483,-7.67,67,0,6.0,RU,1708924468
61,qaqortoq,60.7167,-46.0333,-8.07,87,99,3.5,GL,1708924593
62,kismayo,-0.3582,42.5454,28.41,77,99,4.54,SO,1708924640
63,malanville,11.8685,3.3899,25.24,20,12,3.85,BJ,1708924640
64,mili,6.0815,171.735,28.18,80,39,5.4,MH,1708924640
65,bom jesus,-9.0744,-44.3586,23.09,79,21,0.21,BR,1708924641
66,nar'yan-mar,67.6713,53.087,-1.05,94,100,7.6,RU,1708924117
67,klyuchi,52.2667,79.1667,-8.94,90,100,3.29,RU,1708924642
68,xinyi,22.373,110.9475,17.81,65,100,1.47,CN,1708924642
69,bredasdorp,-34.5322,20.0403,14.66,68,9,2.01,ZA,1708924318
70,ilulissat,69.2167,-51.1,-16.99,71,75,5.66,GL,1708924384
71,toscolano maderno,45.6345,10.6084,9.06,83,100,2.5,IT,1708924644
72,port mathurin,-19.6833,63.4167,26.52,72,41,7.72,MU,1708924644
73,whitehorse,60.7161,-135.0538,-23.57,100,93,1.5,CA,1708924438
74,santa lucia,27.9117,-15.5407,14.41,67,75,10.29,ES,1708924645
75,alice springs,-23.7,133.8833,39.56,16,0,8.75,AU,1708924557
76,troitsko-pechorsk,62.7084,56.1964,-0.17,95,100,4.02,RU,1708924646
77,howrah,22.5892,88.3103,24.0,53,0,4.63,IN,1708924439
78,las heras,-46.5419,-68.9359,17.59,56,97,0.4,AR,1708924647
79,burutu,5.3509,5.5076,25.86,90,75,1.81,NG,1708924647
80,hermanus,-34.4187,19.2345,13.78,73,1,5.6,ZA,1708924648
81,blythe,33.6103,-114.5964,21.25,30,0,0.0,US,1708924648
82,minas de marcona,-15.2119,-75.1103,19.28,86,99,4.84,PE,1708924649
83,georgetown,5.4112,100.3354,33.96,46,20,5.14,MY,1708924509
84,nyagan,62.1406,65.3936,-0.83,95,100,3.92,RU,1708924592
85,port augusta,-32.5,137.7667,34.83,14,37,3.57,AU,1708924651
86,dzhangala,49.2167,50.3333,-10.22,72,1,3.35,KZ,1708924652
87,siwa oasis,29.2041,25.5195,13.14,46,1,4.87,EG,1708924652
88,port elizabeth,-33.918,25.5701,16.72,91,100,5.66,ZA,1708924653
89,tolanaro,-25.0319,46.9987,25.67,87,97,3.82,MG,1708924653
90,envira,-7.3,-70.2167,21.23,99,99,0.51,BR,1708924653
91,san luis de la loma,17.2706,-100.8939,24.3,83,82,1.5,MX,1708924654
92,grand falls-windsor,48.9332,-55.6649,-9.72,83,11,1.97,CA,1708924654
93,swakopmund,-22.6833,14.5333,16.66,86,18,2.24,NA,1708924655
94,port alfred,-33.5906,26.891,14.54,96,90,1.34,ZA,1708924655
95,lihue,21.9789,-159.3672,24.58,70,75,8.23,US,1708924374
96,afaahiti,-17.75,-149.2833,26.93,81,41,3.87,PF,1708924656
97,sheopur,25.6667,76.7,24.13,18,100,5.54,IN,1708924657
98,vernon,50.2581,-119.2691,4.78,75,82,0.45,CA,1708924518
99,olonkinbyen,70.9221,-8.7187,-1.53,96,100,8.73,SJ,1708924652
100,woolgoolga,-30.1106,153.2007,31.13,71,4,4.41,AU,1708924511
101,anadyr,64.75,177.4833,-22.98,99,100,1.72,RU,1708924607
102,aasiaat,68.7098,-52.8699,-25.84,99,93,1.75,GL,1708924653
103,lehigh acres,26.6254,-81.6248,14.97,58,0,2.76,US,1708924391
104,hammerfest,70.6634,23.6821,-0.75,80,75,0.0,NO,1708924398
105,kill devil hills,36.0307,-75.676,4.99,80,0,0.0,US,1708924660
106,klaksvik,62.2266,-6.589,-2.49,56,89,3.96,FO,1708924661
107,varadero,23.1536,-81.2514,20.03,61,0,4.39,CU,1708924420
108,jilma,35.2731,9.4239,8.69,53,47,3.5,TN,1708924662
109,iqaluit,63.7506,-68.5145,-21.84,76,100,1.91,CA,1708924288
110,san antonio de pale,-1.4014,5.6325,28.01,78,100,3.74,GQ,1708924662
111,coruripe,-10.1256,-36.1756,26.36,79,28,3.92,BR,1708924663
112,vilyuysk,63.7553,121.6247,-25.56,94,99,0.89,RU,1708924403
113,edinburgh of the seven seas,-37.0676,-12.3116,19.52,95,94,9.15,SH,1708924664
114,pisco,-13.7,-76.2167,23.03,83,0,4.63,PE,1708924664
115,qamdo,31.1667,97.2333,-3.54,37,42,1.93,CN,1708924665
116,umm kaddadah,13.6017,26.6876,22.31,23,94,6.14,SD,1708924665
117,pathein,16.7833,94.7333,36.78,18,2,2.38,MM,1708924665
118,bikenibeu village,1.3673,173.1241,29.98,74,75,3.6,KI,1708924666
119,puerto ayora,-0.7393,-90.3518,26.97,92,50,0.45,EC,1708924666
120,hawaiian paradise park,19.5933,-154.9731,19.73,93,100,3.09,US,1708924667
121,wailua homesteads,22.0669,-159.378,24.24,70,75,8.23,US,1708924667
122,revda,56.801,59.9303,-10.71,72,73,5.35,RU,1708924608
123,rongelap,11.1635,166.8941,26.68,82,27,6.55,MH,1708924668
124,holualoa,19.6228,-155.9522,21.91,84,75,2.57,US,1708924010
125,kasongo-lunda,-6.4667,16.8167,21.3,99,100,0.29,CD,1708924669
126,margaret river,-33.95,115.0667,21.21,70,98,3.92,AU,1708924670
127,al kharijah,25.4514,30.5464,14.78,38,0,1.23,EG,1708924670
128,san patricio,28.017,-97.5169,20.47,83,97,5.94,US,1708924670
129,carutapera,-1.195,-46.02,23.87,95,96,0.65,BR,1708924671
130,tralee,52.2704,-9.7026,5.62,84,9,6.4,IE,1708924671
131,isafjordur,66.0755,-23.124,4.13,95,100,9.18,IS,1708924627
132,sulak,43.2734,47.5146,2.85,67,6,13.28,RU,1708924672
133,belo sur tsiribihina,-19.7,44.55,27.01,81,43,1.67,MG,1708924673
134,argostolion,38.1811,20.489,13.19,67,99,3.89,GR,1708924673
135,barreirinha,-2.7933,-57.07,24.07,92,99,1.25,BR,1708924674
136,guiyang,26.5833,106.7167,4.27,70,75,3.0,CN,1708924674
137,pudozh,61.8099,36.5345,1.08,98,100,5.36,RU,1708924674
138,jianshui,23.6363,102.8264,25.91,29,2,5.28,CN,1708924675
139,port lincoln,-34.7333,135.8667,19.53,77,100,4.52,AU,1708924675
140,chiang klang,19.2938,100.8617,35.85,29,0,1.63,TH,1708924676
141,constantia,44.1833,28.65,4.38,88,99,3.85,RO,1708924220
142,flying fish cove,-10.4217,105.6791,29.82,79,100,2.57,CX,1708924677
143,guthrie,35.8789,-97.4253,16.01,58,0,2.57,US,1708924677
144,bruchhausen-vilsen,52.8333,9.0,1.91,86,94,3.19,DE,1708924678
145,kenai,60.5544,-151.2583,-9.95,91,0,0.0,US,1708924647
146,san pedro pochutla,15.7333,-96.4667,22.64,84,79,1.83,MX,1708924679
147,bac giang,21.2667,106.2,13.04,71,100,0.96,VN,1708924679
148,manasa,24.4837,75.2687,22.6,25,99,7.7,IN,1708924679
149,maturin,9.75,-63.1767,24.91,94,30,3.09,VE,1708924680
150,sur,22.5667,59.5289,24.51,66,100,9.83,OM,1708924383
151,st. paul,44.9444,-93.0933,2.14,72,0,0.0,US,1708924681
152,monze,-16.2833,27.4833,19.2,82,33,1.08,ZM,1708924681
153,garoowe,8.4054,48.4845,21.74,75,70,4.17,SO,1708924682
154,portland,45.5234,-122.6762,9.99,93,100,7.2,US,1708924613
155,jamestown,42.097,-79.2353,5.77,52,96,3.13,US,1708924683
156,inari,68.906,27.0288,1.11,89,100,6.82,FI,1708924683
157,cuero,29.0939,-97.2892,19.82,91,41,1.79,US,1708924684
158,camana,-16.6228,-72.7111,23.35,89,100,3.79,PE,1708924684
159,lompoc,34.6391,-120.4579,12.18,88,0,1.54,US,1708924028
160,katabu,-4.9333,122.5167,27.83,83,72,0.91,ID,1708924685
161,bam,29.106,58.357,6.21,77,100,2.9,IR,1708924623
162,manadhoo,5.7667,73.3833,28.29,74,59,6.83,MV,1708924686
163,poronaysk,49.2167,143.1167,-11.83,86,90,1.92,RU,1708924387
164,turpan,42.9333,89.1667,4.4,32,0,1.23,CN,1708924687
165,sao jose da coroa grande,-8.8978,-35.1478,26.62,79,38,4.85,BR,1708924687
166,luxor,25.6989,32.6421,15.86,27,0,1.2,EG,1708924688
167,krasnovishersk,60.4078,57.082,-3.58,96,100,2.92,RU,1708924688
168,college,64.8569,-147.8028,-14.56,82,40,0.0,US,1708924515
169,ati,13.2154,18.3353,23.74,30,8,4.05,TD,1708924689
170,jiuquan,39.7432,98.5174,-1.68,51,82,2.38,CN,1708924690
171,betio village,1.358,172.9211,30.02,75,76,3.82,KI,1708924690
172,sorong,-0.8833,131.25,28.74,68,51,3.51,ID,1708924628
173,alvand,36.3187,49.1678,-8.51,77,100,7.91,IR,1708924691
174,amos,48.5669,-78.1162,-1.58,93,100,4.86,CA,1708924504
175,udachny,66.4167,112.4,-18.64,70,46,1.88,RU,1708924538
176,zagan,51.6176,15.3149,2.22,90,41,1.96,PL,1708924693
177,belebey,54.1167,54.1167,-15.5,77,15,1.63,RU,1708924693
178,san isidro,-12.1167,-77.05,25.01,81,40,3.6,PE,1708924694
179,kourou,5.1552,-52.6478,26.03,82,64,3.91,GF,1708924694
180,qinzhou,21.95,108.6167,10.79,77,100,4.6,CN,1708924695
181,port blair,11.6667,92.75,32.02,62,5,4.63,IN,1708924695
182,rikaze,29.25,88.8833,2.82,24,37,0.48,CN,1708924696
183,taro,-8.3862,115.28,27.0,74,85,1.62,ID,1708924517
184,rasskazovo,52.6714,41.9033,-6.92,86,100,5.47,RU,1708924696
185,rajpipla,21.8667,73.5,29.82,14,96,2.44,IN,1708924697
186,arraial do cabo,-22.9661,-42.0278,24.15,89,68,3.66,BR,1708924697
187,kodiak,57.79,-152.4072,-3.27,68,0,2.06,US,1708924114
188,pocone,-16.2567,-56.6228,25.42,70,73,0.82,BR,1708924416
189,aripuana,-9.1667,-60.6333,22.44,100,97,1.37,BR,1708924699
190,saldanha,-33.0117,17.9442,15.24,68,0,5.26,ZA,1708924699
191,ixtapa,20.7,-105.2,22.57,94,0,0.0,MX,1708924700
192,laguna paiva,-31.3039,-60.6589,23.32,80,86,5.4,AR,1708924700
193,mount isa,-20.7333,139.5,33.87,49,75,3.09,AU,1708924701
194,howard springs,-12.497,131.047,32.21,81,100,2.03,AU,1708924701
195,narsingdi,23.9208,90.7181,25.01,35,0,3.73,BD,1708924702
196,carnarvon,-24.8667,113.6333,26.88,76,22,5.34,AU,1708924702
197,bakanas,44.8081,76.2772,-6.48,67,6,3.54,KZ,1708924703
198,vilyuchinsk,52.9306,158.4028,-6.85,62,4,3.95,RU,1708924662
199,ciudad lazaro cardenas,17.9583,-102.2,23.67,86,100,1.39,MX,1708924704
200,bangkalan,-7.0455,112.7351,32.97,65,64,3.7,ID,1708924606
201,grajau,-5.8194,-46.1386,22.45,94,99,1.02,BR,1708924705
202,embu,-23.6489,-46.8522,22.84,92,71,2.62,BR,1708924589
203,bujaru,-1.515,-48.0447,23.45,99,100,0.58,BR,1708924706
204,maceio,-9.6658,-35.7353,26.69,89,40,1.54,BR,1708924706
205,hargeysa,9.56,44.065,22.6,19,64,0.93,SO,1708924707
206,charters towers,-20.1,146.2667,31.63,56,75,3.81,AU,1708924707
207,tindouf,27.6711,-8.1474,14.55,29,0,1.7,DZ,1708924330
208,belmonte,-15.8631,-38.8828,24.64,88,10,2.32,BR,1708924708
209,kone,-21.0595,164.8658,28.94,67,84,3.34,NC,1708924709
210,ust-nera,64.5667,143.2,-27.5,93,76,1.72,RU,1708924685
211,margate,51.3813,1.3862,7.71,83,100,4.47,GB,1708924710
212,hirara,24.8,125.2833,18.15,72,75,5.66,JP,1708924710
213,tan-tan,28.438,-11.1032,14.76,91,2,4.99,MA,1708924710
214,yaren,-0.5472,166.916,29.38,71,37,3.3,NR,1708924711
215,sandnessjoen,66.0217,12.6316,4.12,81,75,3.09,NO,1708924712
216,bulata,9.8599,122.4016,29.39,61,61,9.14,PH,1708924712
217,thompson,55.7435,-97.8558,-27.96,99,60,1.59,CA,1708924713
218,luderitz,-26.6481,15.1594,16.51,71,1,6.72,NA,1708924713
219,nelson,-41.2833,173.2833,18.06,66,61,4.17,NZ,1708924714
220,macon,39.8667,-88.9668,9.93,66,0,3.09,US,1708924513
221,ewo,-0.8725,14.8206,25.3,72,100,2.03,CG,1708924493
222,kavieng,-2.5744,150.7967,28.03,76,100,2.2,PG,1708924715
223,fortaleza,-3.7227,-38.5247,24.07,94,100,4.63,BR,1708924716
224,sinabang,2.4803,96.3801,30.29,70,61,1.98,ID,1708924717
225,sechura,-5.5569,-80.8222,26.64,69,91,3.17,PE,1708924717
226,badger,64.8,-147.5333,-14.61,83,40,0.0,US,1708924532
227,port saint john's,-31.6229,29.5448,18.73,56,58,7.06,ZA,1708924718
228,porto novo,6.4965,2.6036,26.92,86,55,2.29,BJ,1708924719
229,kalifornsky,60.4183,-151.29,-9.81,86,0,0.0,US,1708924719
230,tazacorte,28.629,-17.9293,16.54,89,75,6.69,ES,1708924720
231,undurkhaan,47.3194,110.6556,-11.65,82,100,2.11,MN,1708924720
232,crane,31.3974,-102.3501,21.34,20,86,2.23,US,1708924720
233,morristown,36.214,-83.2949,9.03,71,100,2.06,US,1708924646
234,santo antonio,-6.3106,-35.4789,24.84,85,18,4.44,BR,1708924629
235,talnakh,69.4865,88.3972,-15.44,95,100,7.98,RU,1708924722
236,santa ana,33.7456,-117.8678,15.85,85,75,2.06,US,1708924518
237,mocajuba,-2.5842,-49.5072,22.5,99,100,0.91,BR,1708924724
238,kincardine,56.0667,-3.7167,3.29,85,24,1.94,GB,1708924724
239,willowmore,-33.2926,23.4895,9.88,67,16,1.4,ZA,1708924724
240,pago pago,-14.2781,-170.7025,28.55,84,40,1.03,AS,1708924725
241,walvis bay,-22.9575,14.5053,16.72,88,40,1.42,NA,1708924626
242,ola,59.5833,151.2833,-13.25,74,66,1.41,RU,1708924726
243,niamey,13.5137,2.1098,24.78,19,48,3.86,NE,1708924726
244,san andres,12.5847,-81.7006,27.01,74,20,5.14,CO,1708924727
245,prince rupert,54.3161,-130.3201,0.24,66,99,4.83,CA,1708924727
246,sitka,57.0531,-135.33,-1.06,37,0,4.63,US,1708924727
247,ingeniero jacobacci,-41.3427,-69.5448,17.34,43,3,1.71,AR,1708924728
248,oltinko'l,40.8011,72.1634,5.41,72,100,1.11,UZ,1708924728
249,vorgashor,67.5833,63.95,0.12,95,100,9.44,RU,1708924412
250,grantsville,40.5999,-112.4644,11.57,37,41,2.24,US,1708924729
251,saudarkrokur,65.7461,-19.6394,2.47,84,100,10.16,IS,1708924234
252,codrington,-38.2667,141.9667,18.39,51,95,7.4,AU,1708924730
253,ferkessedougou,9.6,-5.2,26.57,39,44,2.01,CI,1708924731
254,ugoofaaru,5.6667,73.0,28.21,72,76,7.15,MV,1708924731
255,pimentel,-6.8367,-79.9342,24.33,80,94,4.03,PE,1708924319
256,morehead city,34.7229,-76.726,8.0,77,0,0.45,US,1708924644
257,dori,14.0354,-0.0345,25.25,19,100,4.19,BF,1708924449
258,sasovo,54.3537,41.9199,-7.71,83,100,5.81,RU,1708924733
259,hasaki,35.7333,140.8333,11.22,44,54,9.24,JP,1708924541
260,onega,63.9061,38.1404,-1.16,95,100,3.86,RU,1708924734
261,ancud,-41.8697,-73.8203,11.24,86,1,1.27,CL,1708924680
262,mar del plata,-38.0023,-57.5575,20.53,76,0,4.92,AR,1708924630
263,st. john's,47.5649,-52.7093,-6.03,81,6,3.13,CA,1708924612
264,pyay,18.8167,95.2167,34.92,22,5,3.26,MM,1708924519
265,stanley,54.868,-1.6985,3.76,95,0,3.09,GB,1708924430
266,lazaro cardenas,17.9583,-102.2,23.67,86,100,1.39,MX,1708924736
267,palikir - national government center,6.9248,158.1611,30.41,70,40,4.12,FM,1708924737
268,bengkulu,-3.8004,102.2655,31.04,63,88,3.11,ID,1708924737
269,avarua,-21.2078,-159.775,28.03,83,100,1.54,CK,1708924310
270,remire-montjoly,4.9167,-52.2667,26.02,83,20,0.0,GF,1708924460
271,almendralejo,38.6832,-6.4075,9.26,91,100,7.57,ES,1708924739
272,guiratinga,-16.3494,-53.7583,23.37,80,21,0.71,BR,1708924739
273,chandla,25.0833,80.2,25.18,14,95,4.69,IN,1708924740
274,nishinoomote,30.7333,131.0,14.31,58,75,2.57,JP,1708924740
275,shingu,33.7333,135.9833,10.65,47,8,5.64,JP,1708924741
276,brisas de zicatela,15.8369,-97.0419,24.97,84,81,1.85,MX,1708924741
277,maintirano,-18.0667,44.0167,27.32,82,90,1.56,MG,1708924548
278,san jose del guaviare,2.5729,-72.6459,25.48,49,74,0.5,CO,1708924742
279,sao francisco de assis,-29.5503,-55.1311,22.55,84,55,6.69,BR,1708924743
280,uray,60.1247,64.7758,-3.4,95,100,3.58,RU,1708924743
281,cururupu,-1.8283,-44.8683,23.21,98,100,1.11,BR,1708924744
282,chibougamau,49.9168,-74.3659,-5.21,93,100,4.63,CA,1708924540
283,belinskiy,52.9647,43.4165,-11.61,88,99,4.83,RU,1708924745
284,miyaly,48.8844,53.7836,-12.47,69,1,2.85,KZ,1708924745
285,pustoshka,56.3355,29.369,2.88,96,100,3.83,RU,1708924746
286,alofi,-19.0595,-169.9187,25.94,94,75,3.09,NU,1708924746
287,kushiro,42.975,144.3747,-5.47,93,75,7.2,JP,1708924746
288,hilo,19.7297,-155.09,20.16,91,100,3.09,US,1708924747
289,puerto aysen,-45.4,-72.7,10.01,96,38,1.2,CL,1708924747
290,tura,25.5198,90.2201,26.1,21,21,1.59,IN,1708924398
291,navarre,30.4016,-86.8636,13.19,81,0,1.54,US,1708924748
292,fada,9.5667,8.3,22.34,21,93,2.38,NG,1708924389
293,nev'yansk,57.4953,60.2112,-7.04,80,100,5.36,RU,1708924750
294,shevchenko,48.5,35.0,0.01,67,100,5.47,UA,1708924750
295,fortuna,40.5982,-124.1573,12.59,92,100,0.0,US,1708924751
296,san marcos,33.1434,-117.1661,15.56,89,0,2.06,US,1708924751
297,sangre grande,10.5835,-61.1177,25.66,100,12,3.63,TT,1708924752
298,teguise,29.0605,-13.564,14.12,77,75,5.66,ES,1708924752
299,coquimbo,-29.9533,-71.3436,18.85,88,100,2.57,CL,1708924639
300,kenora,49.8167,-94.4337,-10.68,61,25,1.34,CA,1708924753
301,saint-pierre,-21.3393,55.4781,27.82,83,100,0.0,RE,1708924705
302,suva,-18.1416,178.4415,28.01,80,34,4.18,FJ,1708924455
303,nambucca heads,-30.65,153.0,30.65,72,0,4.93,AU,1708924755
304,ketchikan,55.3422,-131.6461,0.26,55,0,7.72,US,1708924747
305,midvagur,62.0511,-7.1939,-2.54,74,78,1.03,FO,1708924756
306,gananoque,44.3334,-76.1661,6.04,52,100,6.91,CA,1708924756
307,savanna-la-mar,18.219,-78.1332,24.4,79,90,2.63,JM,1708924757
308,eyl,7.9803,49.8164,25.3,70,89,5.2,SO,1708924757
309,mammoth lakes,37.6485,-118.9721,-0.6,64,0,0.0,US,1708924651
310,kavaratti,10.5669,72.642,27.75,72,86,3.77,IN,1708924710
311,muang khong,14.1167,105.85,35.42,26,9,2.11,LA,1708924759
312,aykhal,66.0,111.5,-18.78,70,7,2.21,RU,1708924739
313,fort st. john,56.2499,-120.8529,-15.67,91,100,5.92,CA,1708924760
314,usol'ye,59.4268,56.6808,-5.52,95,100,3.82,RU,1708924761
315,hithadhoo,-0.6,73.0833,28.86,76,100,6.23,MV,1708924761
316,east london,-33.0153,27.9116,17.27,66,59,7.76,ZA,1708924762
317,callao,-12.0667,-77.15,25.4,83,40,3.6,PE,1708924762
318,sambava,-14.2667,50.1667,26.35,73,99,0.51,MG,1708924763
319,luau,-10.7073,22.2247,17.79,96,100,1.46,AO,1708924763
320,lerwick,60.1545,-1.1494,2.0,76,67,6.84,GB,1708924763
321,monterey,36.2505,-121.2516,7.88,82,39,1.59,US,1708924764
322,vila velha,-20.3297,-40.2925,22.97,96,20,2.57,BR,1708924529
323,charlottetown,46.2352,-63.1267,-14.87,94,9,2.26,CA,1708924381
324,namibe,-15.1961,12.1522,24.02,86,99,0.32,AO,1708924472
325,keflavik,64.0049,-22.5624,5.24,100,100,13.89,IS,1708924595
326,manicore,-5.8092,-61.3003,23.44,100,100,0.6,BR,1708924766
327,la quinta,33.6634,-116.31,21.34,44,0,1.54,US,1708924767
328,hadibu,12.65,54.0333,24.67,70,53,1.33,YE,1708924767
329,barcelos,41.5388,-8.6151,10.08,77,59,7.94,PT,1708924768
330,saint-philippe,-21.3585,55.7679,27.77,86,80,7.04,RE,1708924768
331,mukalla,14.5425,49.1242,24.41,71,1,1.17,YE,1708924497
332,shiyan,32.6475,110.7781,6.47,53,92,4.19,CN,1708924769
333,cabo san lucas,22.8909,-109.9124,23.2,57,39,1.34,MX,1708924655
334,atherton,53.5237,-2.4935,4.05,87,55,1.34,GB,1708924770
335,guiuan,11.0333,125.7247,27.19,72,29,10.29,PH,1708924772
336,taoudenni,22.6783,-3.9836,18.67,17,45,5.01,ML,1708924773
337,banes,20.9625,-75.7186,22.51,78,90,4.27,CU,1708924774
338,constanza,47.6603,9.1758,6.11,70,100,1.34,DE,1708924778
339,sault ste. marie,46.5168,-84.3333,0.16,80,20,2.57,CA,1708924591
340,mawlaik,23.6333,94.4167,29.3,29,0,1.76,MM,1708924780
341,ghormach,35.7306,63.7826,-2.31,96,100,2.63,AF,1708924781
342,mountain home,43.133,-115.6912,9.12,61,40,0.0,US,1708924644
343,amga,60.8953,131.9608,-20.48,91,100,0.86,RU,1708924782
344,touros,-5.1989,-35.4608,25.71,88,61,4.66,BR,1708924460
345,puerto escondido,15.85,-97.0667,25.06,84,81,1.82,MX,1708924195
346,bure,10.7,37.0667,20.09,44,70,0.33,ET,1708924785
347,thinadhoo,0.5333,72.9333,28.12,78,99,4.91,MV,1708924786
348,st johnsbury,44.4253,-72.0151,-0.28,62,100,2.57,US,1708924793
349,gharavuti,37.5672,68.4469,6.36,65,100,0.96,TJ,1708924796
350,karpinsk,59.7654,60.0085,-3.91,85,100,4.47,RU,1708924797
351,suwon,37.2911,127.0089,9.64,40,20,1.54,KR,1708924797
352,ad dabbah,18.05,30.95,18.98,22,15,4.21,SD,1708924798
353,barah,13.7,30.3667,22.5,24,27,3.84,SD,1708924801
354,usogorsk,63.4106,48.6872,0.93,98,100,3.39,RU,1708924802
355,turkmenbasy,40.0222,52.9552,-2.57,50,0,4.12,TM,1708924803
356,langsa,4.4683,97.9683,33.71,49,70,2.01,ID,1708924804
357,brejo,-3.6844,-42.7503,22.96,96,92,1.33,BR,1708924806
358,mareeba,-17.0,145.4333,28.4,86,83,2.31,AU,1708924297
359,xining,36.6167,101.7667,-1.14,64,81,0.92,CN,1708924746
360,cold springs,39.6802,-119.9766,8.23,52,0,6.69,US,1708924807
361,berezovo,63.9381,65.0419,-1.55,91,100,3.54,RU,1708924808
362,rantepao,-2.9701,119.8978,25.56,82,90,1.23,ID,1708924809
363,qarah bagh,34.9402,61.7759,-6.44,95,100,8.72,AF,1708924810
364,ariquemes,-9.9133,-63.0408,22.45,99,85,0.92,BR,1708924511
365,koster,-25.863,26.8976,19.5,52,0,2.53,ZA,1708924811
366,kita,13.0349,-9.4895,22.6,11,9,1.63,ML,1708924811
367,hamilton,39.1834,-84.5333,10.35,61,0,3.6,US,1708924746
368,kudymkar,59.0173,54.656,-5.6,87,100,4.21,RU,1708924560
369,pangkalanbuun,-2.6833,111.6167,30.57,67,88,1.88,ID,1708924605
370,mabaruma,8.2,-59.7833,23.12,90,28,1.04,GY,1708924814
371,ambalangoda,6.2355,80.0538,29.68,66,78,2.48,LK,1708924815
372,san jose del cabo,23.0589,-109.6977,23.19,73,0,3.09,MX,1708924757
373,djougou,9.7085,1.666,25.87,36,40,1.87,BJ,1708924816
374,kingston,17.997,-76.7936,22.31,97,25,1.57,JM,1708924682
375,gorontalo,0.5412,123.0595,33.72,46,99,1.4,ID,1708924817
376,narvik,68.4384,17.4272,2.67,96,97,3.12,NO,1708924818
377,jeddah,21.5169,39.2192,21.92,68,0,3.09,SA,1708924818
378,kamenka,51.3223,42.7678,-9.75,86,99,5.4,RU,1708924819
379,nikolayevsk-on-amure,53.1406,140.73,-10.72,70,59,0.97,RU,1708924304
380,malanje,-9.5402,16.341,17.66,99,100,1.02,AO,1708924820
381,tiquipaya,-17.3382,-66.2189,14.43,70,99,0.45,BO,1708924820
382,masuguru,-11.3667,38.4167,23.39,98,100,1.76,TZ,1708924821
383,buala,-8.145,159.5921,28.84,78,100,0.68,SB,1708924822
384,san buenaventura,27.0833,-101.5333,27.26,38,1,1.18,MX,1708924822
385,rodolfo sanchez taboada,31.7167,-116.5667,14.5,79,100,0.89,MX,1708924823
386,bandon,51.7469,-8.7425,2.77,88,10,8.14,IE,1708924824
387,labrador city,52.9463,-66.9114,-14.34,85,98,3.44,CA,1708924825
388,coari,-4.085,-63.1414,23.81,99,100,1.48,BR,1708924825
389,coxim,-18.5067,-54.76,25.79,63,67,1.32,BR,1708924826
390,khandyga,62.6667,135.6,-25.81,89,68,0.27,RU,1708924375
391,maxixe,-23.8597,35.3472,26.79,82,4,3.06,MZ,1708924827
392,puerto armuelles,8.2833,-82.8667,26.72,59,35,0.45,PA,1708924828
393,serchhip,23.3,92.8333,25.97,34,0,1.19,IN,1708924829
394,junin,-34.5838,-60.9433,18.42,97,100,3.99,AR,1708924829
395,corner brook,48.9667,-57.9484,-13.54,97,57,1.83,CA,1708924830
396,mpika,-11.8343,31.4529,17.31,98,100,1.88,ZM,1708924831
397,port macquarie,-31.4333,152.9167,29.94,65,1,4.52,AU,1708924831
398,denison,33.7557,-96.5367,18.86,76,0,0.89,US,1708924832
399,paita,-5.0892,-81.1144,25.49,77,98,2.13,PE,1708924833
400,daura,11.5538,11.4085,21.58,17,54,3.0,NG,1708924833
401,vadso,70.0744,29.7487,2.49,80,75,8.23,NO,1708924708
402,kokshetau,53.2775,69.3883,-5.82,86,75,5.0,KZ,1708924834
403,lukolela,-1.0605,17.1821,23.07,89,100,1.52,CD,1708924835
404,gornopravdinsk,60.05,69.9,-1.38,96,98,2.46,RU,1708924836
405,ndele,8.4109,20.6473,24.98,35,82,0.52,CF,1708924836
406,kolonia,50.9333,6.95,6.65,84,100,3.6,DE,1708924808
407,tashtyp,52.7939,89.8983,-8.04,84,100,1.19,RU,1708924837
408,kosterevo,55.9299,39.6144,-5.28,88,100,4.71,RU,1708924838
409,beloyarskiy,63.7119,66.6722,-1.11,97,100,3.58,RU,1708924838
410,novi grad,45.0458,16.3803,5.55,92,78,0.93,BA,1708924839
411,coahuayana de hidalgo,18.7,-103.6583,22.42,92,63,1.02,MX,1708924840
412,bamboo flat,11.7,92.7167,32.05,62,5,4.63,IN,1708924840
413,kruisfontein,-34.0033,24.7314,15.49,76,98,3.15,ZA,1708924767
414,kirakira,-10.4544,161.9205,28.54,82,100,2.5,SB,1708924841
415,iwon-up,40.3231,128.6553,2.1,72,68,3.05,KP,1708924842
416,harper,4.375,-7.7169,26.58,90,67,2.38,LR,1708924842
417,okha,53.5739,142.9478,-15.84,81,13,2.5,RU,1708924843
418,geraldton,-28.7667,114.6,32.23,51,0,6.69,AU,1708924843
419,galesong,-5.3166,119.3661,31.01,91,98,6.43,ID,1708924844
420,northam,51.0333,-4.2167,5.9,77,100,11.94,GB,1708924844
421,dryden,49.7833,-92.7503,-9.95,92,16,1.17,CA,1708924675
422,viedma,-40.8135,-62.9967,19.71,75,99,6.75,AR,1708924845
423,rabaul,-4.1967,152.1721,28.48,75,98,5.55,PG,1708924845
424,klimavichy,53.6135,31.9385,0.78,74,100,7.14,BY,1708924846
425,corte,42.25,9.25,9.96,97,100,1.25,FR,1708924846
426,siguiri,11.6667,-9.5,23.67,15,5,1.29,GN,1708924614
427,mejit,10.2753,170.8646,26.84,81,57,7.52,MH,1708924284
428,galvez,-32.0293,-61.221,21.36,87,95,3.94,AR,1708924848
429,smara,26.7384,-11.6719,14.22,81,1,3.84,EH,1708924848
430,chambersburg,39.9376,-77.6611,4.38,76,96,0.45,US,1708924627
431,oranjemund,-28.55,16.4333,14.82,83,0,5.38,NA,1708924849
432,topki,55.2769,85.6163,-14.11,88,97,2.03,RU,1708924849
433,faro,37.0194,-7.9322,12.88,94,40,4.12,PT,1708924850
434,nili,33.7218,66.1302,-0.2,96,100,2.61,AF,1708924850
435,taulaga,-11.0553,-171.0883,29.08,69,100,5.2,AS,1708924836
436,batarasa,8.6617,117.6222,29.97,59,99,6.13,PH,1708924851
437,brokopondo,4.75,-55.1667,24.29,79,84,3.61,SR,1708924420
438,wotho,10.1657,166.0102,26.98,82,63,6.66,MH,1708924852
439,minas novas,-17.2186,-42.5903,18.16,95,9,0.98,BR,1708924853
440,tsiombe,-25.3,45.4833,27.58,69,8,3.4,MG,1708924691
441,long beach,33.767,-118.1892,15.1,89,40,2.06,US,1708924591
442,raja,8.4596,25.678,24.38,34,94,1.43,SS,1708924854
443,jand,33.4299,72.0193,16.3,32,100,1.46,PK,1708924855
444,mikun',62.3547,50.0771,-0.13,96,100,3.02,RU,1708924855
445,binzhou,37.3667,118.0167,3.98,35,99,4.68,CN,1708924428
446,revelstoke,50.9832,-118.2023,3.01,75,100,7.2,CA,1708924631
447,naze,28.3667,129.4833,15.61,62,82,7.27,JP,1708924324
448,hinte,53.4167,7.1833,4.46,92,96,4.12,DE,1708924857
449,pecos,31.4229,-103.4932,23.5,22,0,4.63,US,1708924857
450,muravlenko,63.7898,74.523,-11.43,94,92,8.54,RU,1708924689
451,usinsk,65.9939,57.5281,0.04,97,100,8.49,RU,1708924858
452,del rio,29.3627,-100.8968,24.06,33,0,3.09,US,1708924859
453,guichon,-32.35,-57.2,21.71,76,99,6.37,UY,1708924859
454,zouerate,22.7187,-12.4521,18.76,23,0,2.09,MR,1708924860
455,keminmaa,65.8596,24.8228,0.87,93,100,9.26,FI,1708924860
456,katsuura,35.1333,140.3,12.01,48,66,8.21,JP,1708924749
457,belyy yar,53.6039,91.3903,-15.06,66,40,1.0,RU,1708924861
458,chui,-33.6971,-53.4616,21.11,77,100,4.29,UY,1708924861
459,vila franca do campo,37.7167,-25.4333,18.27,99,76,5.99,PT,1708924752
460,stephenville,32.2207,-98.2023,19.44,32,0,1.54,US,1708924779
461,fosses-la-ville,50.3952,4.6962,6.54,93,75,6.17,BE,1708924863
462,ouarzazat,30.9189,-6.8934,9.16,31,0,1.03,MA,1708924863
463,bokakhat,26.6333,93.6,23.85,37,19,3.04,IN,1708924864
464,porto velho,-8.7619,-63.9039,25.03,94,75,1.03,BR,1708924864
465,saint croix,17.7397,-64.7388,23.86,90,3,0.45,VI,1708924651
466,basco,20.4487,121.9702,22.69,80,98,9.46,PH,1708924719
467,ponta delgada,37.7333,-25.6667,18.44,88,75,9.26,PT,1708924866
468,markovo,57.3206,107.0881,-15.15,81,100,1.0,RU,1708924282
469,salinas,36.6777,-121.6555,12.05,88,20,2.06,US,1708924867
470,salym,60.0625,71.4789,-4.01,94,99,2.22,RU,1708924867
471,mersing,2.4312,103.8405,30.95,74,40,6.17,MY,1708924591
472,barreirinhas,-2.7469,-42.8264,24.33,93,100,1.28,BR,1708924869
473,la marina de port,41.3603,2.1376,14.62,74,20,2.57,ES,1708924869
474,arkhangel'sk,64.5401,40.5433,2.06,86,75,3.0,RU,1708924648
475,paphos,34.7667,32.4167,9.88,71,75,2.57,CY,1708924870
476,cooper's town,26.8667,-77.5167,20.42,48,0,2.45,BS,1708924871
477,amungan,15.3652,119.9582,30.6,54,9,3.21,PH,1708924477
478,tshikapa,-6.4167,20.8,21.14,97,100,1.05,CD,1708924872
479,van buren,35.4368,-94.3483,15.18,70,0,0.0,US,1708924872
480,tutoia,-2.7619,-42.2744,25.32,86,100,2.01,BR,1708924839
481,lom,43.8139,23.2361,8.22,85,93,0.95,BG,1708924873
482,antsiranana,-12.2787,49.2917,27.18,79,99,2.64,MG,1708924291
483,acapulco de juarez,16.8634,-99.8901,25.9,78,40,2.06,MX,1708924874
484,reggane,26.7158,0.1714,14.01,21,0,3.94,DZ,1708924875
485,rio grande,-32.035,-52.0986,23.3,72,100,7.89,BR,1708924875
486,torshavn,62.0097,-6.7716,-2.34,57,33,2.55,FO,1708924876
487,shimanovsk,52.0,127.7,-10.03,62,11,3.5,RU,1708924876
488,yulinshi,38.2906,109.7494,-0.06,74,100,7.12,CN,1708924877
489,carora,10.1755,-70.0827,23.55,77,26,3.6,VE,1708924877
490,wickenburg,33.9686,-112.7296,16.76,35,100,0.92,US,1708924639
491,martapura,-3.4167,114.85,32.05,62,40,2.57,ID,1708924878
492,yermakovskoye,53.2831,92.4003,-11.32,89,100,0.5,RU,1708924879
493,togur,58.3631,82.8265,-14.92,91,99,2.24,RU,1708924880
494,laguna,38.421,-121.4238,14.69,79,0,3.6,US,1708924784
495,papao,-17.75,-149.55,27.82,79,61,4.66,PF,1708924881
496,kailua-kona,19.6406,-155.9956,23.98,83,75,2.57,US,1708924882
497,tutong,4.8,114.65,31.05,71,62,2.65,BN,1708924883
498,ballina,-28.8667,153.5667,32.1,71,1,4.45,AU,1708924883
499,acarau,-2.8856,-40.12,25.99,86,100,2.41,BR,1708924884
500,port moresby,-9.4431,147.1797,30.32,64,25,3.52,PG,1708924510
501,zaozersk,69.4005,32.4476,1.4,89,100,10.21,RU,1708924885
502,neiafu,-18.65,-173.9833,30.38,79,75,2.57,TO,1708924885
503,nur-sultan,51.1801,71.446,-12.03,85,100,5.0,KZ,1708924886
504,forio,40.7342,13.8646,11.4,71,20,1.41,IT,1708924886
505,bemidji,47.4736,-94.8803,-3.38,85,0,0.0,US,1708924887
506,awjilah,29.1081,21.2869,11.59,68,49,3.62,LY,1708924887
507,upata,8.0086,-62.3989,24.55,90,68,2.13,VE,1708924888
508,vinces,-1.55,-79.7333,23.05,99,100,0.96,EC,1708924888
509,ashburton,-37.8626,145.0794,22.69,49,91,1.34,AU,1708924889
510,kapa'a,22.0752,-159.319,24.99,70,75,8.23,US,1708924758
511,cidade velha,14.9167,-23.6167,21.26,73,20,5.66,CV,1708924890
512,lac-brome,45.2168,-72.5158,0.66,62,100,2.57,CA,1708924890
513,tanjung pandan,-2.75,107.65,30.53,65,100,4.41,ID,1708924891
514,bonthe,7.5264,-12.505,23.84,89,6,0.97,SL,1708924891
515,ujae,8.9322,165.7642,27.56,82,25,6.92,MH,1708924892
516,chonchi,-42.6128,-73.8092,10.56,91,2,0.65,CL,1708924838
517,munxar,36.0307,14.2348,11.95,61,60,10.08,MT,1708924893
518,manmad,20.25,74.45,27.02,29,97,4.42,IN,1708924894
519,yuci,37.6803,112.7319,1.86,41,0,5.0,CN,1708924894
520,xinzhou,38.4092,112.7333,1.08,65,100,0.9,CN,1708924895
521,mermoz boabab,14.7065,-17.4758,19.31,83,0,7.55,SN,1708924895
522,val-d'or,48.1002,-77.7828,-1.81,95,100,4.91,CA,1708924889
523,aral,40.5156,81.2636,1.74,43,87,1.8,CN,1708924896
524,antonio enes,-16.2325,39.9086,26.71,86,100,1.71,MZ,1708924896
525,cambridge,43.3601,-80.3127,4.38,81,85,0.89,CA,1708924668
526,fruitland,38.3221,-75.6202,4.38,85,0,2.57,US,1708924897
527,mirnyy,62.5353,113.9611,-18.21,90,100,1.57,RU,1708924832
528,mwene-ditu,-7.0,23.45,18.97,98,100,1.58,CD,1708924898
529,chifeng,42.2683,118.9636,-2.98,21,39,2.58,CN,1708924793
530,kapuskasing,49.4169,-82.4331,-14.95,72,40,3.09,CA,1708924399
531,kayangel,8.0823,134.7173,27.06,83,83,6.72,PW,1708924754
532,yuktae-dong,40.0247,128.1597,1.57,81,87,3.35,KP,1708924900
533,lubao,14.9167,120.55,33.04,37,13,8.78,PH,1708924900
534,saint-paul,-21.0096,55.2707,30.06,73,78,1.71,RE,1708924901
535,blair,41.5444,-96.125,9.35,56,0,2.57,US,1708924842
536,sonegaon,20.65,78.6833,29.8,47,25,4.45,IN,1708924902
537,sinop,41.7711,34.8709,4.24,69,100,3.46,TR,1708924902
538,maun,-19.9833,23.4167,27.98,36,0,3.09,BW,1708924903
539,grande prairie,55.1667,-118.8027,-14.9,85,100,6.17,CA,1708924811
540,praia da vitoria,38.7333,-27.0667,15.14,82,75,7.37,PT,1708924904
541,san onofre,9.7359,-75.5263,25.46,82,75,4.49,CO,1708924905
542,machico,32.7,-16.7667,17.35,82,20,2.57,PT,1708924905
543,auburn,47.3073,-122.2284,6.99,82,100,5.81,US,1708924905
544,samalut,28.3121,30.7101,14.86,43,0,2.06,EG,1708924906
545,itaituba,-4.2761,-55.9836,23.36,100,100,1.32,BR,1708924907
546,changzhi,35.2089,111.7386,5.51,53,100,6.42,CN,1708924907
547,yakeshi,49.2833,120.7333,-15.47,76,87,1.34,CN,1708924908
548,kununurra,-15.7667,128.7333,35.99,46,40,4.63,AU,1708924909
549,yuzhno-kurilsk,44.0306,145.8556,-3.68,85,100,4.44,RU,1708924835
550,isangel,-19.55,169.2667,30.06,79,75,2.06,VU,1708924909
551,nemuro,43.3236,145.575,-1.14,78,100,6.7,JP,1708924701
552,sarmanovo,55.2553,52.5891,-12.62,79,95,3.58,RU,1708924910
553,prachuap khiri khan,12.2167,99.75,32.94,41,5,4.44,TH,1708924911
554,cidreira,-30.1811,-50.2056,23.74,80,100,7.02,BR,1708924911
555,jayapura,-2.5333,140.7,33.66,79,100,0.49,ID,1708924912
556,waingapu,-9.6567,120.2641,30.83,67,60,1.59,ID,1708924912
557,la'ie,21.6477,-157.9253,21.98,71,24,1.79,US,1708924321
558,colonia,50.9333,6.95,6.65,84,100,3.6,DE,1708924913
559,hunchun,42.8675,130.3581,-0.09,23,8,5.69,CN,1708924914
560,yerofey pavlovich,53.9667,121.9667,-12.35,55,41,1.65,RU,1708924914
561,soio,-6.1349,12.3689,25.36,85,100,2.11,AO,1708924914
562,greymouth,-42.4667,171.2,15.54,66,71,2.8,NZ,1708924611
563,la estancia,20.4167,-100.0667,14.68,40,1,1.82,MX,1708924915
564,masterton,-40.9597,175.6575,19.38,43,100,2.86,NZ,1708924916
565,timbuktu,16.7735,-3.0074,22.19,10,10,4.12,ML,1708924916
566,weno,7.4515,151.8468,27.48,81,93,6.14,FM,1708924383
567,fale old settlement,-9.3852,-171.2468,29.42,72,66,5.71,TK,1708924917
568,dubti,11.7361,41.0853,25.71,59,61,4.48,ET,1708924917
569,sandakan,5.8402,118.1179,29.82,70,40,4.12,MY,1708924918
570,palmas,-10.2128,-48.3603,24.93,88,0,1.03,BR,1708924918
571,nouadhibou,20.931,-17.0347,17.34,85,0,8.03,MR,1708924603
572,glace bay,46.1969,-59.957,-9.01,71,2,1.26,CA,1708924919
573,tibanbang,6.6315,126.1055,28.26,67,25,3.41,PH,1708924920
574,san mariano,7.5,126.0,29.41,61,49,4.2,PH,1708924920
575,deba,10.2086,11.3859,23.79,27,90,2.2,NG,1708924920
576,lucapa,-8.4192,20.7447,18.49,98,100,1.25,AO,1708924921
577,taltal,-25.4,-70.4833,20.25,81,66,1.37,CL,1708924921
578,shihezi,44.3,86.0333,-10.33,88,99,1.56,CN,1708924922
579,priargunsk,50.3691,119.1012,-19.72,93,98,2.05,RU,1708924922
580,mananjary,-21.2167,48.3333,25.12,92,99,2.83,MG,1708924812
581,pierre,44.3683,-100.351,4.6,78,0,7.6,US,1708924801
582,panji,-7.7253,114.0995,30.81,67,100,2.83,ID,1708924924
583,kiama,-34.6833,150.8667,26.32,76,91,0.45,AU,1708924924
584,pullman,46.7313,-117.1796,8.13,86,100,11.18,US,1708924694
585,katsuren-haebaru,26.3369,127.8719,19.43,75,100,3.09,JP,1708924925
586,north bay,46.3168,-79.4663,0.53,88,100,5.57,CA,1708924748
587,comodoro rivadavia,-45.8667,-67.5,15.92,72,0,3.09,AR,1708924926
588,soe,-9.8607,124.284,27.32,62,73,3.02,ID,1708924927
589,idri,27.5,13.2667,7.83,32,0,2.98,LY,1708924927
